     2.10           OBSERVATION DATA    M (MIXED)           RINEX VERSION / TYPE
ComNav                                                      PGM / RUN BY / DATE 
                                                            MARKER NAME         
                                                            OBSERVER / AGENCY   
                    ComNav              55.0                REC # / TYPE / VERS 
                                                            ANT # / TYPE        
        0.0000        0.0000        0.0000                  APPROX POSITION XYZ 
        0.0000        0.0000        0.0000                  ANTENNA: DELTA H/E/N
     1     1                                                WAVELENGTH FACT L1/2
     8    C1    L1    S1    D1    L2    S2    D2    P2      # / TYPES OF OBSERV 
     5.000                                                  INTERVAL
  2019    11    26     8    35   10.000000      GPS         TIME OF FIRST OBS   
                                                            END OF HEADER       
 19 11 26  8 35 10.0000000  0 21G32G22G26G14G31G10G25G12C01C02C03C06            
                                C07C09C10R01R11R09R07R08R10                     
  20277632.367   104688419.34449        51.000        -179.719                  
                                                
  24130188.477   129681084.99646        40.000        2397.707                  
                                                
  23856760.391   122987715.27046        38.000        3789.555                  
                                                
  21005414.180   106944537.44548        46.000        1479.684                  
                                                
  20844824.047   112956133.85549        50.000        1302.227                  
                                                
  22558881.836   121170752.25847        43.000       -3401.020                  
                                                
  20726858.211   111317263.58249        47.000        -836.531                  
                                                
  23422584.961   126460664.37547        43.000       -3122.508                  
                                                
  37981399.688   201421106.11347        41.000          33.695                  
                                                
  38130102.539   201831312.61346        38.000         -40.605                  
                                                
  37604698.328   193273128.71547        42.000          -1.355                  
                                                
  35974613.828   183956588.80148        46.000         112.176                  
                                                
  37004624.867   196467110.23448        44.000        1008.402                  
                                                
  36277503.531   191177469.08248        45.000         454.355                  
                                                
  38878008.898   206532471.50446        39.000        1247.840                  
                                                
  19711216.602   108529497.18449        48.000        1988.383                  
                                                
  19866638.633   107795554.37149        51.000        1723.664                  
                                                
  23114597.961   127125605.85947        43.000       -3857.797                  
                                                
  22881523.781   125127601.22746        39.000       -4005.523                  
                                                
  19483651.938   106644963.05949        51.000       -1493.492                  
                                                
  19718804.227   108363902.06649        50.000        1519.148                  
                                                
 19 11 26  8 35 15.0000000  0 21G32G22G26G14G31G10G25G12C01C02C03C06            
                                C07C09C10R01R11R09R07R08R10                     
  20277804.203   104689323.00449        51.000        -182.164                  
                                                
  24127908.133   129669102.47747        41.000        2395.211                  
                                                
  23853154.852   122968769.25846        40.000        3789.594                  
                                                
  21004006.617   106937141.38349        47.000        1478.270                  
                                                
  20843585.852   112949627.68449        50.000        1299.801                  
                                                
  22562118.367   121187760.86347        43.000       -3402.691                  
                                                
  20727655.688   111321455.43449        47.000        -840.672                  
                                                
  23425556.469   126476280.76648        44.000       -3124.305                  
                                                
  37981367.375   201420938.01646        40.000          33.066                  
                                                
  38130141.195   201831514.25055        37.000         -41.543                  
                                                
  37604699.609   193273135.61347        41.000          -1.867                  
                                                
  35974505.898   183956027.07848        45.000         111.777                  
                                                
  37003657.047   196462070.93047        43.000        1007.027                  
                                                
  36277067.078   191175196.73048        44.000         454.016                  
                                                
  38876810.797   206526232.85545        37.000        1246.590                  
                                                
  19709358.367   108519563.81349        48.000        1984.754                  
                                                
  19865027.188   107786943.78149        51.000        1720.121                  
                                                
  23118210.266   127144895.84847        43.000       -3858.566                  
                                                
  22885266.031   125147633.10946        38.000       -4006.754                  
                                                
  19485048.211   106652440.18049        50.000       -1497.727                  
                                                
  19717381.875   108356315.28149        51.000        1515.285                  
                                                
 19 11 26  8 35 20.0000000  0 21G32G22G26G14G31G10G25G12C01C02C03C06            
                                C07C09C10R01R11R09R07R08R10                     
  20277979.117   104690242.69549        51.000        -183.992                  
                                                
  24125630.797   129657135.63746        40.000        2393.344                  
                                                
  23849550.984   122949832.03146        39.000        3788.109                  
                                                
  21002601.352   106929757.21948        46.000        1477.059                  
                                                
  20842350.523   112943136.47349        50.000        1298.367                  
                                                
  22565357.313   121204782.17247        42.000       -3404.004                  
                                                
  20728457.477   111325670.04349        47.000        -843.664                  
                                                
  23428530.922   126491912.08648        44.000       -3126.098                  
                                                
  37981336.055   201420775.03547        43.000          33.691                  
                                                
  38130180.906   201831721.13356        40.000         -39.930                  
                                                
  37604701.922   193273147.68447        43.000          -1.410                  
                                                
  35974399.242   183955471.65249        48.000         112.051                  
                                                
  37002690.906   196457039.77048        45.000        1006.844                  
                                                
  36276631.734   191172929.62948        46.000         454.215                  
                                                
  38875614.094   206520001.41046        39.000        1247.258                  
                                                
  19707504.258   108509651.94949        48.000        1981.789                  
                                                
  19863419.664   107778354.29749        51.000        1717.383                  
                                                
  23121823.648   127164192.14547        42.000       -3858.297                  
                                                
  22889010.805   125167677.59045        37.000       -4008.465                  
                                                
  19486448.953   106659941.37149        49.000       -1500.961                  
                                                
  19715963.656   108348750.31649        50.000        1512.473                  
                                                
 19 11 26  8 35 25.0000000  0 21G32G22G26G14G31G10G25G12C01C02C03C06            
                                C07C09C10R01R11R09R07R08R10                     
  20278154.516   104691165.54349        51.000        -186.063                  
                                                
  24123353.922   129645171.65646        40.000        2390.973                  
                                                
  23845946.313   122930890.74646        39.000        3788.031                  
                                                
  21001195.758   106922372.08248        46.000        1475.938                  
                                                
  20841115.469   112936647.41449        50.000        1296.582                  
                                                
  22568596.086   121221803.30547        43.000       -3405.352                  
                                                
  20729261.063   111329894.56649        47.000        -846.926                  
                                                
  23431505.656   126507545.45347        43.000       -3127.953                  
                                                
  37981303.359   201420604.84447        42.000          33.938                  
                                                
  38130219.219   201831920.90256        39.000         -40.160                  
                                                
  37604702.836   193273152.53147        43.000          -1.461                  
                                                
  35974291.391   183954910.10949        47.000         111.945                  
                                                
  37001723.938   196452004.38348        45.000        1006.176                  
                                                
  36276194.992   191170655.37548        46.000         454.578                  
                                                
  38874416.406   206513764.85946        39.000        1246.375                  
                                                
  19705651.742   108499748.68449        48.000        1978.672                  
                                                
  19861813.750   107769773.04349        51.000        1714.309                  
                                                
  23125435.859   127183481.86747        42.000       -3858.219                  
                                                
  22892755.391   125187721.77345        37.000       -4009.945                  
                                                
  19487851.828   106667453.60549        50.000       -1504.598                  
                                                
  19714547.102   108341194.22349        50.000        1509.230                  
                                                
 19 11 26  8 35 30.0000000  0 21G32G22G26G14G31G10G25G12C01C02C03C06            
                                C07C09C10R01R11R09R07R08R10                     
  20278331.922   104692098.09849        51.000        -188.406                  
                                                
  24121079.016   129633217.05147        41.000        2389.344                  
                                                
  23842342.219   122911951.98046        40.000        3786.820                  
                                                
  20999791.375   106914992.54348        46.000        1474.469                  
                                                
  20839882.219   112930167.02349        50.000        1294.441                  
                                                
  22571836.203   121238830.79747        43.000       -3406.879                  
                                                
  20730067.922   111334135.53149        48.000        -850.793                  
                                                
  23434482.125   126523187.41448        44.000       -3129.910                  
                                                
  37981270.695   201420433.69947        43.000          33.410                  
                                                
  38130257.484   201832119.74656        39.000         -40.758                  
                                                
  37604703.719   193273156.36747        43.000          -1.723                  
                                                
  35974183.711   183954348.70749        48.000         111.320                  
                                                
  37000757.461   196446970.96548        45.000        1005.625                  
                                                
  36275758.188   191168380.20348        46.000         454.266                  
                                                
  38873219.047   206507529.30146        40.000        1246.754                  
                                                
  19703801.961   108489860.58649        48.000        1975.285                  
                                                
  19860210.578   107761206.46549        51.000        1710.953                  
                                                
  23129048.117   127202771.47747        42.000       -3858.820                  
                                                
  22896500.719   125207772.03946        39.000       -4011.566                  
                                                
  19489258.266   106674983.66449        51.000       -1508.574                  
                                                
  19713133.438   108333653.50849        51.000        1505.645                  
                                                
 19 11 26  8 35 35.0000000  0 21G32G22G26G14G31G10G25G12C01C02C03C06            
                                C07C09C10R01R11R09R07R08R10                     
  20278514.742   104693059.95349        51.000        -190.426                  
                                                
  24118809.477   129621291.46147        41.000        2386.941                  
                                                
  23838742.227   122893035.29346        39.000        3786.352                  
                                                
  20998391.656   106907638.13348        46.000        1473.270                  
                                                
  20838654.172   112923714.86349        50.000        1292.523                  
                                                
  22575081.094   121255884.20747        43.000       -3408.180                  
                                                
  20730881.531   111338412.51249        47.000        -854.070                  
                                                
  23437463.742   126538857.50048        44.000       -3131.754                  
                                                
  37981241.633   201420280.94547        42.000          33.660                  
                                                
  38130299.469   201832337.03946        39.000         -40.367                  
                                                
  37604708.227   193273178.59847        43.000          -1.504                  
                                                
  35974079.906   183953806.79749        47.000         111.645                  
                                                
  36999795.203   196441958.96148        45.000        1005.160                  
                                                
  36275325.047   191166123.51248        46.000         454.461                  
                                                
  38872025.734   206501314.26246        39.000        1245.801                  
                                                
  19701958.625   108480007.62149        48.000        1972.266                  
                                                
  19858613.914   107752674.65249        51.000        1707.902                  
                                                
  23132664.023   127222080.77747        41.000       -3858.715                  
                                                
  22900251.141   125227848.55146        38.000       -4012.195                  
                                                
  19490671.539   106682551.40249        50.000       -1512.281                  
                                                
  19711726.469   108326148.00449        50.000        1502.723                  
                                                
 19 11 26  8 35 40.0000000  0 21G32G22G26G14G31G10G25G12C01C02C03C06            
                                C07C09C10R01R11R09R07R08R10                     
  20278696.625   104694018.20349        51.000        -192.293                  
                                                
  24116538.984   129609361.95347        41.000        2385.020                  
                                                
  23835140.016   122874107.79346        39.000        3785.715                  
                                                
  20996990.266   106900275.98849        47.000        1472.180                  
                                                
  20837425.008   112917258.05949        51.000        1290.813                  
                                                
  22578324.469   121272930.62547        43.000       -3409.543                  
                                                
  20731695.508   111342692.57849        48.000        -857.398                  
                                                
  23440444.281   126554522.85548        44.000       -3133.758                  
                                                
  37981209.867   201420114.11347        43.000          33.941                  
                                                
  38130338.734   201832540.31646        40.000         -40.379                  
                                                
  37604710.039   193273186.76647        43.000          -1.375                  
                                                
  35973973.594   183953251.97349        48.000         111.043                  
                                                
  36998830.852   196436935.82848        45.000        1004.973                  
                                                
  36274889.203   191163852.82048        46.000         454.488                  
                                                
  38870830.102   206495087.14846        40.000        1245.945                  
                                                
  19700115.625   108470156.35949        49.000        1968.902                  
                                                
  19857017.555   107744144.02749        51.000        1704.914                  
                                                
  23136277.406   127241376.54747        42.000       -3858.996                  
                                                
  22904000.164   125247917.60946        39.000       -4013.969                  
                                                
  19492085.383   106690123.29749        51.000       -1515.785                  
                                                
  19710319.773   108318644.38749        50.000        1499.457                  
                                                
